[
  {
    "id": 1,
    "name": "Tuyến 1 - Quận 1",
    "startPoint": {
      "name": "Trường THCS Nguyễn Du",
      "address": "100 Đường Nguyễn Du, Quận 1, TP.HCM",
      "lat": 10.7769,
      "lng": 106.7009
    },
    "endPoint": {
      "name": "Khu dân cư A",
      "address": "Khu dân cư A, Quận 11, TP.HCM",
      "lat": 10.7656,
      "lng": 106.6512
    },
    "stops": [
      {
        "id": 1,
        "name": "Điểm đón 1",
        "address": "123 Đường Lê Lợi, Quận 1",
        "lat": 10.7756,
        "lng": 106.7019,
        "time": "07:05"
      },
      {
        "id": 2,
        "name": "Điểm đón 2",
        "address": "456 Đường Nguyễn Huệ, Quận 1",
        "lat": 10.7735,
        "lng": 106.7012,
        "time": "07:10"
      },
      {
        "id": 3,
        "name": "Điểm đón 3",
        "address": "258 Đường Lý Thường Kiệt, Quận 11",
        "lat": 10.7656,
        "lng": 106.6512,
        "time": "07:15"
      }
    ],
    "distance": "12 km",
    "estimatedTime": "30 phút",
    "color": "#0D8ABC"
  },
  {
    "id": 2,
    "name": "Tuyến 2 - Quận 3",
    "startPoint": {
      "name": "Trường THCS Nguyễn Du",
      "address": "100 Đường Nguyễn Du, Quận 1, TP.HCM",
      "lat": 10.7769,
      "lng": 106.7009
    },
    "endPoint": {
      "name": "Khu dân cư B",
      "address": "Khu dân cư B, Quận 3, TP.HCM",
      "lat": 10.7890,
      "lng": 106.6945
    },
    "stops": [
      {
        "id": 1,
        "name": "Điểm đón 1",
        "address": "789 Đường Hai Bà Trưng, Quận 3",
        "lat": 10.7868,
        "lng": 106.6900,
        "time": "07:00"
      },
      {
        "id": 2,
        "name": "Điểm đón 2",
        "address": "321 Đường Võ Văn Tần, Quận 3",
        "lat": 10.7823,
        "lng": 106.6934,
        "time": "07:08"
      },
      {
        "id": 3,
        "name": "Điểm đón 3",
        "address": "369 Đường Điện Biên Phủ, Quận 3",
        "lat": 10.7890,
        "lng": 106.6945,
        "time": "07:12"
      }
    ],
    "distance": "15 km",
    "estimatedTime": "35 phút",
    "color": "#22C55E"
  },
  {
    "id": 3,
    "name": "Tuyến 3 - Quận 5, 10",
    "startPoint": {
      "name": "Trường THCS Nguyễn Du",
      "address": "100 Đường Nguyễn Du, Quận 1, TP.HCM",
      "lat": 10.7769,
      "lng": 106.7009
    },
    "endPoint": {
      "name": "Khu dân cư C",
      "address": "Khu dân cư C, Quận 10, TP.HCM",
      "lat": 10.7722,
      "lng": 106.6656
    },
    "stops": [
      {
        "id": 1,
        "name": "Điểm đón 1",
        "address": "654 Đường Trần Hưng Đạo, Quận 5",
        "lat": 10.7542,
        "lng": 106.6779,
        "time": "07:15"
      },
      {
        "id": 2,
        "name": "Điểm đón 2",
        "address": "147 Đường Cách Mạng Tháng 8, Quận 10",
        "lat": 10.7722,
        "lng": 106.6656,
        "time": "07:20"
      }
    ],
    "distance": "8 km",
    "estimatedTime": "25 phút",
    "color": "#EAB308"
  }
]
